time_ms,roll_cdeg,pitch_cdeg,yaw_cdeg,alt_mm,top_pwm,bottom_pwm,roll_pwm,pitch_pwm,motors_enabled,uart_rx_errors,uart_rx_overflows,uart_bad_lines,telemetry_overrun,stop_reason
176040,-62,18,-112,334,700,700,1125,1125,0,1,0,0,0,2
176060,-62,18,-112,334,700,700,1125,1125,0,1,0,0,0,2
176080,-62,18,-112,334,700,700,1125,1125,0,1,0,0,0,2
176100,-62,18,-112,335,700,700,1125,1125,0,1,0,1,0,2
176120,-62,18,-112,335,700,700,1125,1125,0,1,0,1,0,2
176140,-62,18,-112,334,700,700,1125,1125,0,1,0,1,0,2
176160,-62,18,-112,335,700,700,1125,1125,0,1,0,1,0,2
176180,-62,18,-112,335,700,700,1125,1125,0,1,0,1,0,2
176200,-62,18,-112,336,700,700,1125,1125,0,1,0,1,0,2
176220,-62,18,-112,336,700,700,1125,1125,0,1,0,1,0,2
176240,-62,18,-112,336,700,700,1125,1125,0,1,0,1,0,2
176260,-62,18,-112,336,700,700,1125,1125,0,1,0,1,0,2
176280,-62,18,-112,336,700,700,1125,1125,0,1,0,1,0,2
176300,-62,18,-112,335,700,700,1125,1125,0,1,0,1,0,2
176320,-62,18,-112,335,700,700,1125,1125,0,1,0,1,0,2
176340,-62,18,-112,335,700,700,1125,1125,0,1,0,1,0,2
176360,-62,18,-112,334,700,700,1125,1125,0,1,0,1,0,2
176380,-62,18,-112,334,700,700,1125,1125,0,1,0,1,0,2
176400,-62,18,-112,334,700,700,1125,1125,0,1,0,1,0,2
176420,-62,18,-112,334,700,700,1125,1125,0,1,0,1,0,4
176440,-62,18,-112,334,700,700,1125,1125,0,1,0,1,0,4
176460,-62,18,-112,332,700,700,1125,1125,0,1,0,1,0,4
176480,-62,18,-112,332,700,700,1125,1125,0,1,0,1,0,4
176500,-62,18,-112,336,700,700,1125,1125,0,1,0,1,0,4
176520,-62,18,-112,336,700,700,1125,1125,0,1,0,1,0,4
176540,-62,18,-112,336,700,700,1125,1125,0,1,0,1,0,4
176560,-62,18,-112,336,700,700,1125,1125,0,1,0,1,0,4
176580,-62,18,-112,336,700,700,1125,1125,0,1,0,1,0,4
176600,-62,18,-112,335,700,700,1125,1125,0,1,0,1,0,4
176620,-62,18,-112,334,700,700,1125,1125,1,1,0,1,0,4
176640,-62,18,-112,334,700,700,1125,1125,1,1,0,1,0,4
176660,-62,18,-112,334,1000,1000,1125,1125,1,1,0,1,0,4
176680,-62,18,-112,334,1000,1000,1125,1125,1,1,0,1,0,4
176700,-62,18,-112,334,1000,1000,1125,1125,1,1,0,1,0,4
176720,-62,18,-112,335,1000,1000,1125,1125,1,1,0,1,0,4
176740,-62,18,-112,335,1000,1000,1125,1125,1,1,0,1,0,4
176760,-62,18,-112,335,1000,1000,1125,1125,1,1,0,1,0,4
176780,-62,18,-112,335,1000,1000,1125,1125,1,1,0,1,0,4
176800,-62,18,-112,335,1000,1000,1125,1125,1,1,0,1,0,4
176820,-62,18,-112,335,1000,1000,1125,1125,1,1,0,1,0,4
176840,-62,18,-112,335,1000,1000,1125,1125,1,1,0,1,0,4
176860,-62,18,-106,333,1000,1000,1125,1125,1,1,0,1,0,4
176880,-62,18,-106,333,1000,1000,1125,1125,1,1,0,1,0,4
176900,-62,18,-100,333,1000,1000,1125,1125,1,1,0,1,0,4
176920,-62,18,-100,337,1000,1000,1125,1125,1,1,0,1,0,4
176940,-62,18,-100,337,1000,1000,1125,1125,1,1,0,1,0,4
176960,-62,18,-106,337,1000,1000,1125,1125,1,1,0,1,0,4
176980,-56,18,-106,337,1000,1000,1125,1125,1,1,0,1,0,4
177000,-56,25,-100,334,1000,1000,1125,1125,1,1,0,1,0,4
177020,-56,25,-100,332,1000,1000,1125,1125,1,1,0,1,0,4
177040,-56,25,-100,332,1000,1000,1125,1125,1,1,0,1,0,4
177060,-50,25,-93,332,1000,1000,1125,1125,1,1,0,1,0,4
177080,-50,25,-93,332,1000,1000,1125,1125,1,1,0,1,0,4
177100,-50,25,-93,332,1000,1000,1125,1125,1,1,0,1,0,4
177120,-50,25,-100,334,1000,1000,1125,1125,1,1,0,1,0,4
177140,-50,25,-100,334,1000,1000,1125,1125,1,1,0,1,0,4
177160,-50,25,-106,335,1000,1000,1125,1125,1,1,0,1,0,4
177180,-50,31,-106,334,1000,1000,1125,1125,1,1,0,1,0,4
177200,-50,31,-106,334,1000,1000,1125,1125,1,1,0,1,0,4
177220,-50,31,-106,335,1000,1000,1125,1125,1,1,0,1,0,4
177240,-50,31,-100,335,1000,1000,1125,1125,1,1,0,1,0,4
177260,-50,31,-100,335,1000,1000,1125,1125,1,1,0,1,0,4
177280,-50,31,-100,335,1000,1000,1125,1125,1,1,0,1,0,4
177300,-50,31,-100,335,1000,1000,1125,1125,1,1,0,1,0,4
177320,-56,37,-106,335,1000,1000,1125,1125,1,1,0,1,0,4
177340,-56,37,-106,336,1000,1000,1125,1125,1,1,0,1,0,4
177360,-56,37,-106,336,1000,1000,1125,1125,1,1,0,1,0,4
177380,-62,37,-106,336,1000,1000,1125,1125,1,1,0,1,0,4
177400,-62,31,-106,336,1000,1000,1125,1125,1,1,0,1,0,4
177420,-68,31,-106,335,1000,1000,1125,1125,1,1,0,1,0,4
177440,-68,31,-106,333,1000,1000,1125,1125,1,1,0,1,0,4
177460,-68,31,-106,333,1000,1000,1125,1125,1,1,0,1,0,4
177480,-68,31,-112,333,1000,1000,1125,1125,1,1,0,1,0,4
177500,-68,31,-112,333,1000,1000,1125,1125,1,1,0,1,0,4
177520,-75,31,-112,333,1000,1000,1125,1125,1,1,0,1,0,4
177540,-75,25,-106,334,1000,1000,1125,1125,1,1,0,1,0,4
177560,-75,25,-106,334,1000,1000,1125,1125,1,1,0,1,0,4
177580,-81,25,-106,334,1000,1000,1125,1125,1,1,0,1,0,4
177600,-81,25,-106,334,1000,1000,1125,1125,1,1,0,1,0,4
177620,-75,18,-106,334,1000,1000,1125,1125,1,1,0,1,0,4
177640,-68,18,-112,335,1000,1000,1125,1125,1,1,0,1,0,4
177660,-68,18,-112,335,1000,1000,1125,1125,1,1,0,1,0,4
177680,-68,18,-112,334,1000,1000,1125,1125,1,1,0,1,0,4
177700,-62,25,-106,334,1000,1000,1125,1125,1,1,0,1,0,4
177720,-62,18,-106,334,1000,1000,1125,1125,1,1,0,1,0,4
177740,-62,18,-106,333,1000,1000,1125,1125,1,1,0,1,0,4
177760,-62,18,-106,333,1000,1000,1125,1125,1,1,0,1,0,4
177780,-62,18,-106,333,1000,1000,1125,1125,1,1,0,1,0,4
177800,-68,25,-106,333,1000,1000,1125,1125,1,1,0,1,0,4
177820,-68,25,-106,333,1000,1000,1125,1125,1,1,0,1,0,4
177840,-75,31,-112,333,1000,1000,1125,1125,1,1,0,1,0,4
177860,-75,31,-112,333,1000,1000,1125,1125,1,1,0,1,0,4
177880,-87,31,-112,334,1000,1000,1125,1125,1,1,0,1,0,4
177900,-93,31,-112,333,1000,1000,1125,1125,1,1,0,1,0,4
177920,-93,31,-112,333,1000,1000,1125,1125,1,1,0,1,0,4
177940,-106,31,-112,335,1000,1000,1125,1125,1,1,0,1,0,4
177960,-106,31,-112,335,1000,1000,1125,1125,1,1,0,1,0,4
177980,-118,31,-112,334,1000,1000,1125,1125,1,1,0,1,0,4
178000,-131,31,-112,334,1000,1000,1125,1125,1,1,0,1,0,4
178020,-131,31,-112,334,1000,1000,1125,1125,1,1,0,1,0,4
178040,-143,31,-118,334,1000,1000,1125,1125,1,1,0,1,0,4
178060,-143,31,-118,334,1000,1000,1125,1125,1,1,0,1,0,4
178080,-150,31,-118,334,1000,1000,1125,1125,1,1,0,1,0,4
178100,-156,31,-118,339,1000,1000,1125,1125,1,1,0,1,0,4
178120,-156,31,-118,339,1000,1000,1125,1125,1,1,0,1,0,4
178140,-162,25,-125,339,1000,1000,1125,1125,1,1,0,1,0,4
178160,-162,25,-125,339,1000,1000,1125,1125,1,1,0,1,0,4
178180,-162,25,-125,337,1000,1000,1125,1125,1,1,0,1,0,4
178200,-156,25,-125,335,1000,1000,1125,1125,1,1,0,1,0,4
178220,-156,25,-125,335,1000,1000,1125,1125,1,1,0,1,0,4
178240,-156,18,-125,337,1000,1000,1125,1125,1,1,0,1,0,4
178260,-156,18,-125,337,1000,1000,1125,1125,1,1,0,1,0,4
178280,-150,18,-125,335,1000,1000,1125,1125,1,1,0,1,0,4
178300,-143,18,-125,337,1000,1000,1125,1125,1,1,0,1,0,4
178320,-143,18,-125,337,1000,1000,1125,1125,1,1,0,1,0,4
178340,-131,18,-125,335,1000,1000,1125,1125,1,1,0,1,0,4
178360,-131,18,-125,335,1000,1000,1125,1125,1,1,0,1,0,4
178380,-125,18,-125,337,1000,1000,1125,1125,1,1,0,1,0,4
178400,-93,12,-118,334,1000,1000,1125,1125,1,1,0,1,0,4
178420,-87,12,-118,334,1000,1000,1125,1125,1,1,0,1,0,4
178440,-56,6,-118,334,1000,1000,1125,1125,1,1,0,1,0,4
178460,-50,6,-118,334,1000,1000,1125,1125,1,1,0,1,0,4
178480,-50,6,-118,334,1000,1000,1125,1125,1,1,0,1,0,4
178500,-50,6,-118,335,1000,1000,1125,1125,1,1,0,1,0,4
178520,-50,12,-118,335,1000,1000,1125,1125,1,1,0,1,0,4
178540,-50,12,-118,335,1000,1000,1125,1125,1,1,0,1,0,4
178560,-43,12,-118,334,1000,1000,1125,1125,1,1,0,1,0,4
178580,-43,12,-118,334,1000,1000,1125,1125,1,1,0,1,0,4
178600,-43,12,-118,334,1000,1000,1125,1125,1,1,0,1,0,4
178620,-43,12,-118,334,1000,1000,1125,1125,1,1,0,1,0,4
178640,-50,12,-118,336,1000,1000,1125,1125,1,1,0,1,0,4
178660,-56,18,-118,336,1000,1000,1125,1125,1,1,0,1,0,4
178680,-56,18,-118,336,1000,1000,1125,1125,1,1,0,1,0,4
178700,-62,18,-118,336,700,700,1125,1125,0,1,0,1,0,5
178720,-68,18,-118,336,700,700,1125,1125,0,1,0,1,0,5
178740,-68,18,-118,336,700,700,1125,1125,0,1,0,1,0,5
178760,-75,25,-125,336,700,700,1125,1125,0,1,0,1,0,5
178780,-81,25,-131,336,700,700,1125,1125,0,1,0,1,0,5
178800,-93,25,-137,337,700,700,1125,1125,0,1,0,1,0,5
178820,-106,25,-137,335,700,700,1125,1125,0,1,0,1,0,4
178840,-106,25,-137,335,700,700,1125,1125,0,1,0,1,0,4
178860,-118,25,-131,339,700,700,1125,1125,0,1,0,1,0,4
178880,-118,18,-125,339,700,700,1125,1125,0,1,0,1,0,4
