time_ms,roll_cdeg,pitch_cdeg,yaw_cdeg,alt_mm,top_pwm,bottom_pwm,roll_pwm,pitch_pwm,motors_enabled,uart_rx_errors,uart_rx_overflows,uart_bad_lines,telemetry_overrun,stop_reason
583200,-106,12,12,352,700,700,1125,1125,0,0,0,0,0,4
583220,-106,12,12,352,700,700,1125,1125,0,0,0,0,0,4
583240,-112,12,12,352,700,700,1125,1125,0,0,0,0,0,4
583260,-112,12,12,352,700,700,1125,1125,0,0,0,0,0,4
583280,-112,12,12,352,700,700,1125,1125,0,0,0,0,0,4
583300,-112,12,12,352,700,700,1125,1125,0,0,0,0,0,4
583320,-112,12,12,352,700,700,1125,1125,0,0,0,0,0,4
583340,-112,12,12,352,700,700,1125,1125,0,0,0,0,0,4
583360,-112,12,12,352,700,700,1125,1125,0,0,0,0,0,4
583380,-112,12,12,352,700,700,1125,1125,0,0,0,0,0,4
583400,-112,12,12,352,700,700,1125,1125,0,0,0,0,0,4
583420,-112,12,12,352,700,700,1125,1125,0,0,0,0,0,4
583440,-112,12,12,352,700,700,1125,1125,0,0,0,0,0,4
583460,-112,12,12,352,700,700,1125,1125,1,0,0,0,0,4
583480,-112,12,12,352,700,700,1125,1125,1,0,0,0,0,4
583500,-112,12,12,352,1050,1050,1225,1125,1,0,0,0,0,4
583520,-112,12,12,352,1050,1050,1225,1125,1,0,0,0,0,4
583540,-112,12,12,352,1050,1050,1225,1125,1,0,0,0,0,4
583560,-112,12,6,352,1050,1050,1225,1125,1,0,0,0,0,4
583580,-106,18,12,352,1050,1050,1225,1125,1,0,0,0,0,4
583600,-106,12,12,352,1050,1050,1225,1125,1,0,0,0,0,4
583620,-106,12,12,352,1050,1050,1225,1125,1,0,0,0,0,4
583640,-106,12,12,352,1050,1050,1225,1125,1,0,0,0,0,4
583660,-106,12,12,352,1050,1050,1225,1125,1,0,0,0,0,4
583680,-106,12,12,352,1050,1050,1225,1125,1,0,0,0,0,4
583700,-106,12,12,352,1050,1050,1225,1125,1,0,0,0,0,4
583720,-106,12,12,352,1050,1050,1225,1125,1,0,0,0,0,4
583740,-112,12,18,352,1050,1050,1225,1125,1,0,0,0,0,4
583760,-106,12,12,352,1050,1050,1225,1125,1,0,0,0,0,4
583780,-106,12,12,352,1050,1050,1225,1125,1,0,0,0,0,4
583800,-112,12,6,352,1050,1050,1225,1125,1,0,0,0,0,4
583820,-112,12,6,352,1050,1050,1225,1125,1,0,0,0,0,4
583840,-112,12,6,352,1050,1050,1225,1125,1,0,0,0,0,4
583860,-112,12,12,352,1050,1050,1225,1125,1,0,0,0,0,4
583880,-112,12,12,352,1050,1050,1225,1125,1,0,0,0,0,4
583900,-112,12,12,352,1050,1050,1225,1125,1,0,0,0,0,4
583920,-112,12,12,352,1050,1050,1225,1125,1,0,0,0,0,4
583940,-112,12,12,352,1050,1050,1225,1125,1,0,0,0,0,4
583960,-112,12,18,352,1050,1050,1225,1125,1,0,0,0,0,4
583980,-106,12,31,352,1050,1050,1125,1125,1,0,0,0,0,4
584000,-106,12,31,352,1050,1050,1125,1125,1,0,0,0,0,4
584020,-106,12,25,352,1050,1050,1125,1125,1,0,0,0,0,4
584040,-100,18,18,352,1050,1050,1125,1125,1,0,0,0,0,4
584060,-100,18,6,352,1050,1050,1125,1125,1,0,0,0,0,4
584080,-100,18,6,352,1050,1050,1125,1125,1,0,0,0,0,4
584100,-100,25,6,352,1050,1050,1125,1125,1,0,0,0,0,4
584120,-100,25,12,352,1050,1050,1125,1125,1,0,0,0,0,4
584140,-100,25,12,352,1050,1050,1125,1125,1,0,0,0,0,4
584160,-100,31,6,352,1050,1050,1125,1125,1,0,0,0,0,4
584180,-100,31,0,352,1050,1050,1125,1125,1,0,0,0,0,4
584200,-100,31,-6,352,1050,1050,1125,1125,1,0,0,0,0,4
584220,-106,31,-12,352,1050,1050,1125,1125,1,0,0,0,0,4
584240,-106,31,-18,352,1050,1050,1125,1125,1,0,0,0,0,4
584260,-112,31,-12,352,1050,1050,1125,1125,1,0,0,0,0,4
584280,-125,31,-12,352,1050,1050,1125,1125,1,0,0,0,0,4
584300,-131,31,-12,352,1050,1050,1125,1125,1,0,0,0,0,4
584320,-137,31,-6,352,1050,1050,1125,1125,1,0,0,0,0,4
584340,-143,31,-6,352,1050,1050,1125,1125,1,0,0,0,0,4
584360,-150,31,6,352,1050,1050,1125,1125,1,0,0,0,0,4
584380,-156,31,12,352,1050,1050,1125,1125,1,0,0,0,0,4
584400,-162,31,12,352,1050,1050,1125,1125,1,0,0,0,0,4
584420,-162,37,12,352,1050,1050,1125,1125,1,0,0,0,0,4
584440,-168,37,6,352,1050,1050,1125,1125,1,0,0,0,0,4
584460,-175,37,0,352,1050,1050,1125,1125,1,0,0,0,0,4
584480,-175,37,-12,352,1050,1050,1125,1125,1,0,0,0,0,4
584500,-175,37,-12,352,1050,1050,1125,1125,1,0,0,0,0,4
584520,-181,43,-12,352,1050,1050,1125,1125,1,0,0,0,0,4
584540,-181,43,-12,352,1050,1050,1125,1125,1,0,0,0,0,4
584560,-181,50,-6,352,1050,1050,1125,1125,1,0,0,0,0,4
584580,-181,43,0,352,1050,1050,1125,1125,1,0,0,0,0,4
584600,-187,43,6,352,1050,1050,1125,1125,1,0,0,0,0,4
584620,-187,43,6,352,1050,1050,1125,1125,1,0,0,0,0,4
584640,-187,43,6,352,1050,1050,1125,1125,1,0,0,0,0,4
584660,-187,43,0,352,1050,1050,1125,1125,1,0,0,0,0,4
584680,-187,43,-6,352,1050,1050,1125,1125,1,0,0,0,0,4
584700,-187,37,-12,352,1050,1050,1125,1125,1,0,0,0,0,4
584720,-193,37,-12,352,1050,1050,1125,1125,1,0,0,0,0,4
584740,-193,37,-12,352,1050,1050,1125,1125,1,0,0,0,0,4
584760,-200,31,-12,352,1050,1050,1125,1125,1,0,0,0,0,4
584780,-206,31,-12,352,1050,1050,1125,1125,1,0,0,0,0,4
584800,-206,25,-18,352,1050,1050,1125,1125,1,0,0,0,0,4
584820,-212,25,-18,352,1050,1050,1125,1125,1,0,0,0,0,4
584840,-225,18,-18,352,1050,1050,1125,1125,1,0,0,0,0,4
584860,-231,12,-18,352,1050,1050,1125,1125,1,0,0,0,0,4
584880,-243,6,-18,352,1050,1050,1125,1125,1,0,0,0,0,4
584900,-250,0,-18,352,1050,1050,1125,1125,1,0,0,0,0,4
584920,-262,0,-25,352,1050,1050,1125,1125,1,0,0,0,0,4
584940,-275,-6,-31,352,1050,1050,1125,1125,1,0,0,0,0,4
584960,-281,-12,-37,352,1050,1050,1125,1125,1,0,0,0,0,4
584980,-287,-18,-37,352,1050,1050,1125,1125,1,0,0,0,0,4
585000,-300,-25,-37,352,1050,1050,1125,1125,1,0,0,0,0,4
585020,-306,-31,-37,352,1050,1050,1125,1125,1,0,0,0,0,4
585040,-306,-31,-43,352,1050,1050,1125,1125,1,0,0,0,0,4
585060,-312,-43,-43,352,1050,1050,1125,1125,1,0,0,0,0,4
585080,-318,-43,-50,352,1050,1050,1125,1125,1,0,0,0,0,4
585100,-318,-50,-62,352,1050,1050,1125,1125,1,0,0,0,0,4
585120,-318,-56,-62,352,1050,1050,1125,1125,1,0,0,0,0,4
585140,-318,-62,-56,352,1050,1050,1125,1125,1,0,0,0,0,4
585160,-318,-62,-50,352,1050,1050,1125,1125,1,0,0,0,0,4
585180,-312,-68,-37,352,1050,1050,1125,1125,1,0,0,0,0,4
585200,-312,-75,-31,352,1050,1050,1125,1125,1,0,0,0,0,4
585220,-306,-75,-37,352,1050,1050,1125,1125,1,0,0,0,0,4
585240,-293,-75,-43,352,1050,1050,1125,1125,1,0,0,0,0,4
585260,-287,-75,-50,352,1050,1050,1125,1125,1,0,0,0,0,4
585280,-281,-75,-56,352,1050,1050,1125,1125,1,0,0,0,0,4
585300,-275,-75,-56,352,1050,1050,1125,1125,1,0,0,0,0,4
585320,-262,-68,-56,352,1050,1050,1125,1125,1,0,0,0,0,4
585340,-256,-68,-50,352,1050,1050,1125,1125,1,0,0,0,0,4
585360,-243,-62,-37,352,1050,1050,1125,1125,1,0,0,0,0,4
585400,-231,-56,-18,352,1050,1050,1125,1125,1,0,0,0,0,4
585420,-218,-50,-18,352,1050,1050,1125,1125,1,0,0,0,0,4
585440,-212,-37,-25,352,1050,1050,1125,1125,1,0,0,0,0,4
585460,-200,-31,-31,352,1050,1050,1125,1125,1,0,0,0,0,4
585480,-193,-25,-31,352,1050,1050,1125,1125,1,0,0,0,0,4
585500,-187,-18,-31,352,1050,1050,1225,1125,1,0,0,0,0,4
585520,-175,-12,-18,352,1050,1050,1225,1125,1,0,0,0,0,4
585540,-168,-6,-12,352,1050,1050,1225,1125,1,0,0,0,0,4
585560,-168,6,-6,352,1050,1050,1225,1125,1,0,0,0,0,4
585580,-162,12,-6,352,1050,1050,1225,1125,1,0,0,0,0,4
585600,-162,18,-18,352,1050,1050,1225,1125,1,0,0,0,0,4
585620,-162,18,-25,352,1050,1050,1225,1125,1,0,0,0,0,4
585640,-162,25,-25,352,1050,1050,1225,1125,1,0,0,0,0,4
585660,-162,31,-12,352,1050,1050,1225,1125,1,0,0,0,0,4
585680,-168,37,0,352,1050,1050,1225,1125,1,0,0,0,0,4
585700,-175,43,6,352,1050,1050,1225,1125,1,0,0,0,0,4
585720,-187,50,12,352,1050,1050,1225,1125,1,0,0,0,0,4
585740,-193,50,6,352,1050,1050,1225,1125,1,0,0,0,0,4
585760,-200,56,0,352,1050,1050,1225,1125,1,0,0,0,0,4
585780,-212,56,-12,352,1050,1050,1225,1125,1,0,0,0,0,4
585800,-218,56,-18,352,1050,1050,1225,1125,1,0,0,0,0,4
585820,-225,56,-25,352,1050,1050,1225,1125,1,0,0,0,0,4
585840,-237,56,-18,352,1050,1050,1225,1125,1,0,0,0,0,4
585860,-243,50,-12,352,1050,1050,1225,1125,1,0,0,0,0,4
585880,-250,43,-6,352,1050,1050,1225,1125,1,0,0,0,0,4
585900,-250,37,-6,352,1050,1050,1225,1125,1,0,0,0,0,4
585920,-256,31,-18,352,1050,1050,1225,1125,1,0,0,0,0,4
585940,-262,31,-31,352,1050,1050,1225,1125,1,0,0,0,0,4
585960,-268,18,-43,352,1050,1050,1225,1125,1,0,0,0,0,4
585980,-268,12,-43,352,1050,1050,1225,1125,1,0,0,0,0,4
586000,-275,6,-37,352,1050,1050,1075,1125,1,0,0,0,0,4
586020,-275,0,-18,352,1050,1050,1075,1125,1,0,0,0,0,4
586040,-275,-6,-12,352,1050,1050,1075,1125,1,0,0,0,0,4
586060,-281,-12,-18,352,1050,1050,1075,1125,1,0,0,0,0,4
586080,-281,-18,-31,352,1050,1050,1075,1125,1,0,0,0,0,4
586100,-287,-25,-50,352,1050,1050,1075,1125,1,0,0,0,0,4
586120,-287,-25,-62,352,1050,1050,1075,1125,1,0,0,0,0,4
586140,-287,-37,-62,352,1050,1050,1075,1125,1,0,0,0,0,4
586160,-293,-37,-56,352,1050,1050,1075,1125,1,0,0,0,0,4
586180,-293,-50,-37,352,1050,1050,1075,1125,1,0,0,0,0,4
586200,-293,-50,-37,352,1050,1050,1075,1125,1,0,0,0,0,4
586220,-293,-56,-31,352,1050,1050,1075,1125,1,0,0,0,0,4
586240,-293,-56,-43,352,1050,1050,1075,1125,1,0,0,0,0,4
586260,-293,-50,-62,352,1050,1050,1075,1125,1,0,0,0,0,4
586280,-287,-56,-75,352,1050,1050,1075,1125,1,0,0,0,0,4
586300,-287,-56,-81,352,1050,1050,1075,1125,1,0,0,0,0,4
586320,-287,-50,-87,352,1050,1050,1075,1125,1,0,0,0,0,4
586340,-287,-56,-81,352,1050,1050,1075,1125,1,0,0,0,0,4
586360,-293,-56,-62,352,1050,1050,1075,1125,1,0,0,0,0,4
586380,-293,-56,-37,352,1050,1050,1075,1125,1,0,0,0,0,4
586400,-293,-62,-25,352,1050,1050,1075,1125,1,0,0,0,0,4
586420,-293,-62,-25,352,1050,1050,1075,1125,1,0,0,0,0,4
586440,-300,-56,-31,352,1050,1050,1075,1125,1,0,0,0,0,4
586460,-300,-56,-56,352,1050,1050,1075,1125,1,0,0,0,0,4
586480,-306,-56,-68,352,1050,1050,1075,1125,1,0,0,0,0,4
586500,-306,-56,-81,352,1050,1050,1075,1125,1,0,0,0,0,4
586520,-306,-50,-81,352,1050,1050,1225,1125,1,0,0,0,0,4
586540,-312,-50,-68,352,1050,1050,1225,1125,1,0,0,0,0,4
586560,-312,-50,-50,352,1050,1050,1225,1125,1,0,0,0,0,4
586580,-312,-50,-37,352,1050,1050,1225,1125,1,0,0,0,0,4
586600,-312,-50,-31,352,1050,1050,1225,1125,1,0,0,0,0,4
586620,-306,-50,-37,352,1050,1050,1225,1125,1,0,0,0,0,4
586640,-300,-56,-50,352,1050,1050,1225,1125,1,0,0,0,0,4
586660,-293,-56,-62,352,1050,1050,1225,1125,1,0,0,0,0,4
586680,-281,-56,-68,352,1050,1050,1225,1125,1,0,0,0,0,4
586700,-281,-56,-68,352,1050,1050,1225,1125,1,0,0,0,0,4
586720,-275,-62,-68,352,1050,1050,1225,1125,1,0,0,0,0,4
586740,-268,-62,-50,352,1050,1050,1225,1125,1,0,0,0,0,4
586760,-262,-62,-37,352,1050,1050,1225,1125,1,0,0,0,0,4
586780,-256,-68,-25,352,1050,1050,1225,1125,1,0,0,0,0,4
586800,-250,-68,-25,352,1050,1050,1225,1125,1,0,0,0,0,4
586820,-243,-75,-31,352,1050,1050,1225,1125,1,0,0,0,0,4
586840,-237,-75,-43,352,1050,1050,1225,1125,1,0,0,0,0,4
586860,-231,-75,-56,352,1050,1050,1225,1125,1,0,0,0,0,4
586880,-231,-75,-56,352,1050,1050,1225,1125,1,0,0,0,0,4
586900,-225,-75,-56,352,1050,1050,1225,1125,1,0,0,0,0,4
586920,-218,-81,-50,352,1050,1050,1225,1125,1,0,0,0,0,4
586940,-218,-81,-37,352,1050,1050,1225,1125,1,0,0,0,0,4
586960,-218,-81,-37,352,1050,1050,1225,1125,1,0,0,0,0,4
586980,-225,-81,-37,352,1050,1050,1225,1125,1,0,0,0,0,4
587000,-225,-81,-43,352,1050,1050,1225,1125,1,0,0,0,0,4
587020,-225,-81,-50,352,1050,1050,1025,1125,1,0,0,0,0,4
587040,-231,-81,-56,352,1050,1050,1025,1125,1,0,0,0,0,4
587060,-243,-81,-62,352,1050,1050,1025,1125,1,0,0,0,0,4
587080,-250,-75,-56,352,1050,1050,1025,1125,1,0,0,0,0,4
587100,-256,-75,-50,352,1050,1050,1025,1125,1,0,0,0,0,4
587120,-268,-68,-50,352,1050,1050,1025,1125,1,0,0,0,0,4
587140,-281,-68,-50,352,1050,1050,1025,1125,1,0,0,0,0,4
587160,-293,-62,-56,352,1050,1050,1025,1125,1,0,0,0,0,4
587180,-306,-56,-68,352,1050,1050,1025,1125,1,0,0,0,0,4
587200,-312,-56,-75,352,1050,1050,1025,1125,1,0,0,0,0,4
587220,-325,-50,-68,352,1050,1050,1025,1125,1,0,0,0,0,4
587240,-337,-43,-62,352,1050,1050,1025,1125,1,0,0,0,0,4
587260,-350,-37,-56,352,1050,1050,1025,1125,1,0,0,0,0,4
587280,-356,-37,-50,352,1050,1050,1025,1125,1,0,0,0,0,4
587300,-356,-31,-50,352,1050,1050,1025,1125,1,0,0,0,0,4
587320,-362,-31,-56,352,1050,1050,1025,1125,1,0,0,0,0,4
587340,-356,-25,-62,352,1050,1050,1025,1125,1,0,0,0,0,4
587360,-356,-18,-68,352,1050,1050,1025,1125,1,0,0,0,0,4
587380,-356,-18,-75,352,1050,1050,1025,1125,1,0,0,0,0,4
587400,-350,-18,-75,352,1050,1050,1025,1125,1,0,0,0,0,4
587420,-343,-12,-68,352,1050,1050,1025,1125,1,0,0,0,0,4
587440,-337,-12,-62,352,1050,1050,1025,1125,1,0,0,0,0,4
587460,-337,-12,-56,352,1050,1050,1025,1125,1,0,0,0,0,4
587480,-325,-12,-43,352,1050,1050,1025,1125,1,0,0,0,0,4
587500,-318,-12,-43,352,1050,1050,1025,1125,1,0,0,0,0,4
587520,-312,-12,-43,352,1050,1050,1225,1125,1,0,0,0,0,4
587540,-300,-12,-50,352,1050,1050,1225,1125,1,0,0,0,0,4
587560,-287,-12,-56,352,1050,1050,1225,1125,1,0,0,0,0,4
587580,-281,-18,-62,352,1050,1050,1225,1125,1,0,0,0,0,4
587600,-268,-18,-68,352,1050,1050,1225,1125,1,0,0,0,0,4
587620,-262,-18,-62,352,1050,1050,1225,1125,1,0,0,0,0,4
587640,-256,-18,-56,352,1050,1050,1225,1125,1,0,0,0,0,4
587660,-250,-25,-37,352,1050,1050,1225,1125,1,0,0,0,0,4
587680,-243,-31,-25,352,1050,1050,1225,1125,1,0,0,0,0,4
587700,-237,-31,-18,352,1050,1050,1225,1125,1,0,0,0,0,4
587720,-231,-31,-25,352,1050,1050,1225,1125,1,0,0,0,0,4
587740,-225,-37,-31,352,1050,1050,1225,1125,1,0,0,0,0,4
587760,-218,-37,-43,352,1050,1050,1225,1125,1,0,0,0,0,4
587780,-212,-43,-50,352,1050,1050,1225,1125,1,0,0,0,0,4
587800,-212,-43,-56,352,1050,1050,1225,1125,1,0,0,0,0,4
587820,-206,-50,-56,352,1050,1050,1225,1125,1,0,0,0,0,4
587840,-206,-50,-50,352,1050,1050,1225,1125,1,0,0,0,0,4
587860,-206,-56,-43,352,1050,1050,1225,1125,1,0,0,0,0,4
587880,-206,-56,-31,352,1050,1050,1225,1125,1,0,0,0,0,4
587900,-206,-62,-31,352,1050,1050,1225,1125,1,0,0,0,0,4
587920,-206,-62,-31,352,1050,1050,1225,1125,1,0,0,0,0,4
587940,-206,-68,-37,352,1050,1050,1225,1125,1,0,0,0,0,4
587960,-212,-68,-50,352,1050,1050,1225,1125,1,0,0,0,0,4
587980,-212,-68,-56,352,1050,1050,1225,1125,1,0,0,0,0,4
588000,-218,-75,-62,352,1050,1050,1225,1125,1,0,0,0,0,4
588020,-218,-75,-62,352,1050,1050,1025,1125,1,0,0,0,0,4
588040,-218,-75,-56,352,1050,1050,1025,1125,1,0,0,0,0,4
588060,-225,-81,-43,352,1050,1050,1025,1125,1,0,0,0,0,4
588080,-225,-75,-37,352,1050,1050,1025,1125,1,0,0,0,0,4
588100,-225,-81,-37,352,1050,1050,1025,1125,1,0,0,0,0,4
588120,-225,-75,-43,352,1050,1050,1025,1125,1,0,0,0,0,4
588140,-231,-75,-56,352,1050,1050,1025,1125,1,0,0,0,0,4
588160,-231,-75,-62,352,1050,1050,1025,1125,1,0,0,0,0,4
588180,-231,-68,-68,352,1050,1050,1025,1125,1,0,0,0,0,4
588200,-237,-62,-62,352,1050,1050,1025,1125,1,0,0,0,0,4
588220,-237,-56,-56,352,1050,1050,1025,1125,1,0,0,0,0,4
588240,-243,-50,-43,352,1050,1050,1025,1125,1,0,0,0,0,4
588260,-243,-50,-37,352,1050,1050,1025,1125,1,0,0,0,0,4
588280,-243,-37,-43,352,1050,1050,1025,1125,1,0,0,0,0,4
588300,-237,-31,-43,352,1050,1050,1025,1125,1,0,0,0,0,4
588320,-237,-18,-50,352,1050,1050,1025,1125,1,0,0,0,0,4
588340,-237,-6,-56,352,1050,1050,1025,1125,1,0,0,0,0,4
588360,-237,0,-50,352,1050,1050,1025,1125,1,0,0,0,0,4
588380,-231,12,-43,352,1050,1050,1025,1125,1,0,0,0,0,4
588400,-231,18,-37,352,1050,1050,1025,1125,1,0,0,0,0,4
588420,-231,31,-31,352,1050,1050,1025,1125,1,0,0,0,0,4
588440,-231,37,-25,352,1050,1050,1025,1125,1,0,0,0,0,4
588460,-231,50,-31,352,1050,1050,1025,1125,1,0,0,0,0,4
588480,-231,56,-31,352,1050,1050,1025,1125,1,0,0,0,0,4
588500,-225,62,-31,352,1050,1050,1025,1125,1,0,0,0,0,4
588520,-231,68,-31,352,1050,1050,1175,1125,1,0,0,0,0,4
588540,-231,75,-37,352,1050,1050,1175,1125,1,0,0,0,0,4
588560,-231,81,-37,352,1050,1050,1175,1125,1,0,0,0,0,4
588580,-237,87,-43,352,1050,1050,1175,1125,1,0,0,0,0,4
588600,-243,87,-43,352,1050,1050,1175,1125,1,0,0,0,0,4
588620,-250,87,-43,352,1050,1050,1175,1125,1,0,0,0,0,4
588640,-256,87,-25,352,1050,1050,1175,1125,1,0,0,0,0,4
588660,-262,87,-18,352,1050,1050,1175,1125,1,0,0,0,0,4
588680,-268,81,-12,352,1050,1050,1175,1125,1,0,0,0,0,4
588700,-281,81,-25,352,1050,1050,1175,1125,1,0,0,0,0,4
588720,-287,75,-37,352,1050,1050,1175,1125,1,0,0,0,0,4
588740,-293,68,-50,352,1050,1050,1175,1125,1,0,0,0,0,4
588760,-300,56,-62,352,1050,1050,1175,1125,1,0,0,0,0,4
588780,-312,43,-75,352,1050,1050,1175,1125,1,0,0,0,0,4
588800,-318,37,-68,352,1050,1050,1175,1125,1,0,0,0,0,4
588820,-331,25,-56,352,1050,1050,1175,1125,1,0,0,0,0,4
588840,-337,12,-43,352,1050,1050,1175,1125,1,0,0,0,0,4
588860,-343,0,-31,352,1050,1050,1175,1125,1,0,0,0,0,4
588880,-350,-12,-37,352,1050,1050,1175,1125,1,0,0,0,0,4
588900,-356,-25,-56,352,1050,1050,1175,1125,1,0,0,0,0,4
588920,-356,-31,-87,352,1050,1050,1175,1125,1,0,0,0,0,4
588940,-362,-43,-112,352,1050,1050,1175,1125,1,0,0,0,0,4
588960,-356,-56,-125,352,1050,1050,1175,1125,1,0,0,0,0,4
588980,-356,-68,-131,352,1050,1050,1175,1125,1,0,0,0,0,4
589000,-362,-81,-125,352,1050,1050,1175,1125,1,0,0,0,0,4
589020,-362,-93,-106,352,1050,1050,1175,1125,1,0,0,0,0,4
589040,-362,-106,-81,352,1050,1050,1025,1125,1,0,0,0,0,4
589060,-362,-118,-62,352,1050,1050,1025,1125,1,0,0,0,0,4
589080,-362,-125,-56,352,1050,1050,1025,1125,1,0,0,0,0,4
589100,-356,-131,-68,352,1050,1050,1025,1125,1,0,0,0,0,4
589120,-356,-131,-93,352,1050,1050,1025,1125,1,0,0,0,0,4
589140,-350,-137,-112,352,1050,1050,1025,1125,1,0,0,0,0,4
589160,-343,-137,-131,352,1050,1050,1025,1125,1,0,0,0,0,4
589180,-337,-143,-131,352,1050,1050,1025,1125,1,0,0,0,0,4
589200,-337,-137,-125,352,1050,1050,1025,1125,1,0,0,0,0,4
589220,-337,-143,-106,352,1050,1050,1025,1125,1,0,0,0,0,4
589240,-337,-143,-93,352,1050,1050,1025,1125,1,0,0,0,0,4
589260,-331,-143,-81,352,1050,1050,1025,1125,1,0,0,0,0,4
589280,-331,-137,-75,352,1050,1050,1025,1125,1,0,0,0,0,4
589300,-325,-137,-81,352,1050,1050,1025,1125,1,0,0,0,0,4
589320,-312,-131,-87,352,1050,1050,1025,1125,1,0,0,0,0,4
589340,-306,-125,-100,352,1050,1050,1025,1125,1,0,0,0,0,4
589360,-300,-118,-106,352,1050,1050,1025,1125,1,0,0,0,0,4
589380,-293,-112,-106,352,1050,1050,1025,1125,1,0,0,0,0,4
589400,-287,-106,-93,352,1050,1050,1025,1125,1,0,0,0,0,4
589420,-275,-100,-81,352,1050,1050,1025,1125,1,0,0,0,0,4
589440,-268,-87,-68,352,1050,1050,1025,1125,1,0,0,0,0,4
589460,-262,-81,-62,352,1050,1050,1025,1125,1,0,0,0,0,4
589480,-256,-75,-62,352,1050,1050,1025,1125,1,0,0,0,0,4
589500,-250,-68,-68,352,1050,1050,1025,1125,1,0,0,0,0,4
589520,-243,-56,-81,352,1050,1050,1025,1125,1,0,0,0,0,4
589540,-237,-50,-87,352,1050,1050,1025,1125,1,0,0,0,0,4
589560,-231,-43,-81,352,1050,1050,1025,1125,1,0,0,0,0,4
589580,-237,-37,-62,352,1050,1050,1025,1125,1,0,0,0,0,4
589600,-237,-31,-43,352,1050,1050,1025,1125,1,0,0,0,0,4
589620,-237,-25,-31,352,1050,1050,1025,1125,1,0,0,0,0,4
589640,-237,-18,-31,352,1050,1050,1025,1125,1,0,0,0,0,4
589660,-243,-12,-43,352,1050,1050,1025,1125,1,0,0,0,0,4
589680,-243,-6,-43,352,1050,1050,1025,1125,1,0,0,0,0,4
589700,-250,0,-68,352,1050,1050,1025,1125,1,0,0,0,0,4
589720,-250,6,-68,352,1050,1050,1025,1125,1,0,0,0,0,4
589740,-256,12,-68,352,1050,1050,1025,1125,1,0,0,0,0,4
589760,-256,18,-56,352,1050,1050,1025,1125,1,0,0,0,0,4
589780,-256,18,-50,352,1050,1050,1025,1125,1,0,0,0,0,4
589800,-262,18,-37,352,1050,1050,1025,1125,1,0,0,0,0,4
589820,-262,25,-37,352,1050,1050,1025,1125,1,0,0,0,0,4
589840,-256,25,-37,352,1050,1050,1025,1125,1,0,0,0,0,4
589860,-256,25,-50,352,1050,1050,1025,1125,1,0,0,0,0,4
589880,-250,25,-56,352,1050,1050,1025,1125,1,0,0,0,0,4
589900,-243,25,-68,352,1050,1050,1025,1125,1,0,0,0,0,4
589920,-237,25,-62,352,1050,1050,1025,1125,1,0,0,0,0,4
589940,-231,18,-56,352,1050,1050,1025,1125,1,0,0,0,0,4
589960,-218,12,-43,352,1050,1050,1025,1125,1,0,0,0,0,4
589980,-212,12,-37,352,1050,1050,1025,1125,1,0,0,0,0,4
590000,-206,6,-31,352,1050,1050,1025,1125,1,0,0,0,0,4
590020,-200,0,-37,352,1050,1050,1025,1125,1,0,0,0,0,4
590040,-193,-6,-43,352,1050,1050,1175,1125,1,0,0,0,0,4
590060,-187,-12,-56,352,1050,1050,1175,1125,1,0,0,0,0,4
590080,-187,-18,-68,352,1050,1050,1175,1125,1,0,0,0,0,4
590100,-187,-25,-75,352,1050,1050,1175,1125,1,0,0,0,0,4
590120,-187,-31,-68,352,1050,1050,1175,1125,1,0,0,0,0,4
590140,-193,-43,-56,352,1050,1050,1175,1125,1,0,0,0,0,4
590160,-200,-50,-43,352,1050,1050,1175,1125,1,0,0,0,0,4
590180,-206,-56,-37,352,1050,1050,1175,1125,1,0,0,0,0,4
590200,-212,-62,-37,352,1050,1050,1175,1125,1,0,0,0,0,4
590220,-218,-68,-56,352,1050,1050,1175,1125,1,0,0,0,0,4
590240,-231,-81,-75,352,1050,1050,1175,1125,1,0,0,0,0,4
590260,-237,-87,-87,352,1050,1050,1175,1125,1,0,0,0,0,4
590280,-250,-93,-100,352,1050,1050,1175,1125,1,0,0,0,0,4
590300,-256,-100,-93,352,1050,1050,1175,1125,1,0,0,0,0,4
590320,-262,-100,-87,352,1050,1050,1175,1125,1,0,0,0,0,4
590340,-268,-106,-75,352,1050,1050,1175,1125,1,0,0,0,0,4
590360,-281,-106,-62,352,1050,1050,1175,1125,1,0,0,0,0,4
590380,-281,-112,-68,352,1050,1050,1175,1125,1,0,0,0,0,4
590400,-287,-112,-75,352,1050,1050,1175,1125,1,0,0,0,0,4
590420,-293,-112,-93,352,1050,1050,1175,1125,1,0,0,0,0,4
590440,-293,-106,-106,352,1050,1050,1175,1125,1,0,0,0,0,4
590460,-293,-106,-112,352,1050,1050,1175,1125,1,0,0,0,0,4
590480,-293,-106,-106,352,1050,1050,1175,1125,1,0,0,0,0,4
590500,-293,-100,-93,352,1050,1050,1175,1125,1,0,0,0,0,4
590520,-293,-100,-81,352,1050,1050,1175,1125,1,0,0,0,0,4
590540,-287,-93,-68,352,1050,1050,1125,1125,1,0,0,0,0,4
590560,-287,-87,-68,352,1050,1050,1125,1125,1,0,0,0,0,4
590580,-281,-81,-81,352,1050,1050,1125,1125,1,0,0,0,0,4
590600,-281,-75,-100,352,1050,1050,1125,1125,1,0,0,0,0,4
590620,-268,-68,-106,352,1050,1050,1125,1125,1,0,0,0,0,4
590640,-268,-62,-100,352,1050,1050,1125,1125,1,0,0,0,0,4
590660,-262,-56,-81,352,1050,1050,1125,1125,1,0,0,0,0,4
590680,-256,-50,-62,352,1050,1050,1125,1125,1,0,0,0,0,4
590700,-250,-50,-43,352,1050,1050,1125,1125,1,0,0,0,0,4
590720,-243,-43,-37,352,1050,1050,1125,1125,1,0,0,0,0,4
590740,-237,-37,-50,352,1050,1050,1125,1125,1,0,0,0,0,4
590760,-225,-25,-62,352,1050,1050,1125,1125,1,0,0,0,0,4
590780,-212,-18,-81,352,1050,1050,1125,1125,1,0,0,0,0,4
590800,-206,-12,-87,352,1050,1050,1125,1125,1,0,0,0,0,4
590820,-193,0,-87,352,1050,1050,1125,1125,1,0,0,0,0,4
590840,-187,0,-81,352,1050,1050,1125,1125,1,0,0,0,0,4
590860,-168,12,-50,352,1050,1050,1125,1125,1,0,0,0,0,4
590880,-156,18,-25,352,1050,1050,1125,1125,1,0,0,0,0,4
590900,-150,25,-12,352,1050,1050,1125,1125,1,0,0,0,0,4
590920,-143,31,-6,352,1050,1050,1125,1125,1,0,0,0,0,4
590940,-131,37,-12,352,1050,1050,1125,1125,1,0,0,0,0,4
590960,-125,43,-25,352,1050,1050,1125,1125,1,0,0,0,0,4
590980,-118,50,-43,352,1050,1050,1125,1125,1,0,0,0,0,4
591000,-118,56,-50,352,1050,1050,1125,1125,1,0,0,0,0,4
591020,-112,56,-50,352,1050,1050,1125,1125,1,0,0,0,0,4
591040,-112,56,-37,352,1050,1050,1125,1125,1,0,0,0,0,4
591060,-118,62,-25,352,1050,1050,1225,1125,1,0,0,0,0,4
591080,-125,62,-12,352,1050,1050,1225,1125,1,0,0,0,0,4
591100,-131,62,-12,352,1050,1050,1225,1125,1,0,0,0,0,4
591120,-143,56,-18,352,1050,1050,1225,1125,1,0,0,0,0,4
591140,-150,56,-31,352,1050,1050,1225,1125,1,0,0,0,0,4
591160,-162,56,-50,352,1050,1050,1225,1125,1,0,0,0,0,4
591180,-175,50,-68,352,1050,1050,1225,1125,1,0,0,0,0,4
591200,-187,50,-81,352,1050,1050,1225,1125,1,0,0,0,0,4
591220,-200,43,-81,352,1050,1050,1225,1125,1,0,0,0,0,4
591240,-218,37,-75,352,1050,1050,1225,1125,1,0,0,0,0,4
591260,-237,37,-56,352,1050,1050,1225,1125,1,0,0,0,0,4
591280,-256,31,-37,352,1050,1050,1225,1125,1,0,0,0,0,4
591300,-275,25,-31,352,1050,1050,1225,1125,1,0,0,0,0,4
591320,-293,18,-37,352,1050,1050,1225,1125,1,0,0,0,0,4
591340,-312,18,-56,352,1050,1050,1225,1125,1,0,0,0,0,4
591360,-325,12,-75,352,1050,1050,1225,1125,1,0,0,0,0,4
591380,-337,6,-100,352,1050,1050,1225,1125,1,0,0,0,0,4
591400,-350,0,-106,352,1050,1050,1225,1125,1,0,0,0,0,4
591420,-356,-6,-106,352,1050,1050,1225,1125,1,0,0,0,0,4
591440,-368,-6,-93,352,1050,1050,1225,1125,1,0,0,0,0,4
591460,-375,-12,-81,352,1050,1050,1225,1125,1,0,0,0,0,4
591480,-375,-12,-68,352,1050,1050,1225,1125,1,0,0,0,0,4
591500,-375,-18,-68,352,1050,1050,1225,1125,1,0,0,0,0,4
591520,-375,-18,-81,352,1050,1050,1225,1125,1,0,0,0,0,4
591540,-368,-18,-93,352,1050,1050,1225,1125,1,0,0,0,0,4
591560,-362,-18,-106,352,1050,1050,1075,1125,1,0,0,0,0,4
591580,-356,-18,-112,352,1050,1050,1075,1125,1,0,0,0,0,4
591600,-350,-12,-106,352,1050,1050,1075,1125,1,0,0,0,0,4
591620,-343,-12,-93,352,1050,1050,1075,1125,1,0,0,0,0,4
591640,-337,-12,-75,352,1050,1050,1075,1125,1,0,0,0,0,4
591660,-325,-6,-68,352,1050,1050,1075,1125,1,0,0,0,0,4
591680,-318,-6,-62,352,1050,1050,1075,1125,1,0,0,0,0,4
591700,-306,-6,-68,352,1050,1050,1075,1125,1,0,0,0,0,4
591720,-300,0,-81,352,1050,1050,1075,1125,1,0,0,0,0,4
591740,-287,0,-87,352,1050,1050,1075,1125,1,0,0,0,0,4
591760,-281,0,-93,352,1050,1050,1075,1125,1,0,0,0,0,4
591780,-275,6,-93,352,1050,1050,1075,1125,1,0,0,0,0,4
591800,-262,6,-87,352,1050,1050,1075,1125,1,0,0,0,0,4
591820,-262,6,-81,352,1050,1050,1075,1125,1,0,0,0,0,4
591840,-256,6,-68,352,1050,1050,1075,1125,1,0,0,0,0,4
591860,-250,0,-62,352,1050,1050,1075,1125,1,0,0,0,0,4
591880,-250,0,-56,352,1050,1050,1075,1125,1,0,0,0,0,4
591900,-243,0,-62,352,1050,1050,1075,1125,1,0,0,0,0,4
591920,-243,0,-68,352,1050,1050,1075,1125,1,0,0,0,0,4
591940,-243,-6,-81,352,1050,1050,1075,1125,1,0,0,0,0,4
591960,-243,-6,-93,352,1050,1050,1075,1125,1,0,0,0,0,4
591980,-243,-6,-93,352,1050,1050,1075,1125,1,0,0,0,0,4
592000,-250,-6,-87,352,1050,1050,1075,1125,1,0,0,0,0,4
592020,-250,-12,-75,352,1050,1050,1075,1125,1,0,0,0,0,4
592040,-256,-12,-62,352,1050,1050,1075,1125,1,0,0,0,0,4
592060,-262,-12,-62,352,1050,1050,1075,1125,1,0,0,0,0,4
592080,-268,-12,-68,352,1050,1050,1075,1125,1,0,0,0,0,4
592100,-268,-18,-81,352,1050,1050,1075,1125,1,0,0,0,0,4
592120,-275,-18,-93,352,1050,1050,1075,1125,1,0,0,0,0,4
592140,-281,-18,-93,352,1050,1050,1075,1125,1,0,0,0,0,4
592160,-281,-18,-93,352,1050,1050,1075,1125,1,0,0,0,0,4
592180,-287,-18,-87,352,1050,1050,1075,1125,1,0,0,0,0,4
592200,-287,-25,-81,352,1050,1050,1075,1125,1,0,0,0,0,4
592220,-287,-31,-75,352,1050,1050,1075,1125,1,0,0,0,0,4
592240,-287,-31,-75,352,1050,1050,1075,1125,1,0,0,0,0,4
592260,-287,-37,-75,352,1050,1050,1075,1125,1,0,0,0,0,4
592280,-281,-37,-81,352,1050,1050,1075,1125,1,0,0,0,0,4
592300,-275,-37,-93,352,1050,1050,1075,1125,1,0,0,0,0,4
592320,-268,-43,-93,352,1050,1050,1075,1125,1,0,0,0,0,4
592340,-262,-43,-93,352,1050,1050,1075,1125,1,0,0,0,0,4
592360,-250,-43,-93,352,1050,1050,1075,1125,1,0,0,0,0,4
592380,-243,-50,-93,352,1050,1050,1075,1125,1,0,0,0,0,4
592400,-231,-50,-93,352,1050,1050,1075,1125,1,0,0,0,0,4
592420,-218,-56,-87,352,1050,1050,1075,1125,1,0,0,0,0,4
592440,-206,-56,-87,352,1050,1050,1075,1125,1,0,0,0,0,4
592460,-200,-56,-87,352,1050,1050,1075,1125,1,0,0,0,0,4
592480,-187,-56,-81,352,1050,1050,1075,1125,1,0,0,0,0,4
592500,-175,-56,-75,352,1050,1050,1075,1125,1,0,0,0,0,4
592520,-162,-56,-68,352,1050,1050,1075,1125,1,0,0,0,0,4
592540,-156,-56,-62,352,1050,1050,1075,1125,1,0,0,0,0,4
592560,-150,-56,-56,352,1050,1050,1175,1125,1,0,0,0,0,4
592580,-143,-56,-56,352,1050,1050,1175,1125,1,0,0,0,0,4
592600,-137,-56,-62,352,1050,1050,1175,1125,1,0,0,0,0,4
592620,-137,-56,-68,352,1050,1050,1175,1125,1,0,0,0,0,4
592640,-131,-56,-75,352,1050,1050,1175,1125,1,0,0,0,0,4
592660,-131,-56,-81,352,1050,1050,1175,1125,1,0,0,0,0,4
592680,-131,-56,-87,352,1050,1050,1175,1125,1,0,0,0,0,4
592700,-137,-56,-81,352,1050,1050,1175,1125,1,0,0,0,0,4
592720,-143,-56,-75,352,1050,1050,1175,1125,1,0,0,0,0,4
592740,-150,-56,-68,352,1050,1050,1175,1125,1,0,0,0,0,4
592760,-156,-56,-68,352,1050,1050,1175,1125,1,0,0,0,0,4
592780,-168,-56,-68,352,1050,1050,1175,1125,1,0,0,0,0,4
592800,-181,-50,-68,352,1050,1050,1175,1125,1,0,0,0,0,4
592820,-193,-50,-75,352,1050,1050,1175,1125,1,0,0,0,0,4
592840,-206,-50,-81,352,1050,1050,1175,1125,1,0,0,0,0,4
592860,-218,-50,-87,352,1050,1050,1175,1125,1,0,0,0,0,4
592880,-231,-43,-87,352,1050,1050,1175,1125,1,0,0,0,0,4
592900,-243,-43,-87,352,1050,1050,1175,1125,1,0,0,0,0,4
592920,-250,-43,-87,352,1050,1050,1175,1125,1,0,0,0,0,4
592940,-262,-37,-81,352,1050,1050,1175,1125,1,0,0,0,0,4
592960,-268,-37,-87,352,1050,1050,1175,1125,1,0,0,0,0,4
592980,-275,-37,-93,352,1050,1050,1175,1125,1,0,0,0,0,4
593000,-281,-31,-93,352,1050,1050,1175,1125,1,0,0,0,0,4
593020,-287,-25,-93,352,1050,1050,1175,1125,1,0,0,0,0,4
593040,-293,-18,-93,352,1050,1050,1175,1125,1,0,0,0,0,4
593060,-293,-18,-87,352,1050,1050,1175,1125,1,0,0,0,0,4
593080,-293,-12,-87,352,1050,1050,1025,1125,1,0,0,0,0,4
593100,-293,0,-87,352,1050,1050,1025,1125,1,0,0,0,0,4
593120,-293,6,-93,352,1050,1050,1025,1125,1,0,0,0,0,4
593140,-287,12,-93,352,1050,1050,1025,1125,1,0,0,0,0,4
593160,-281,18,-93,352,1050,1050,1025,1125,1,0,0,0,0,4
593180,-275,25,-81,352,1050,1050,1025,1125,1,0,0,0,0,4
593200,-275,25,-75,352,1050,1050,1025,1125,1,0,0,0,0,4
593220,-268,31,-75,352,1050,1050,1025,1125,1,0,0,0,0,4
593240,-262,37,-81,352,1050,1050,1025,1125,1,0,0,0,0,4
593260,-262,37,-87,352,1050,1050,1025,1125,1,0,0,0,0,4
593280,-262,43,-106,352,1050,1050,1025,1125,1,0,0,0,0,4
593300,-262,37,-106,352,1050,1050,1025,1125,1,0,0,0,0,4
593320,-262,37,-93,352,1050,1050,1025,1125,1,0,0,0,0,4
593340,-262,37,-81,352,1050,1050,1025,1125,1,0,0,0,0,4
593360,-262,31,-62,352,1050,1050,1025,1125,1,0,0,0,0,4
593380,-262,25,-50,352,1050,1050,1025,1125,1,0,0,0,0,4
593400,-268,18,-56,352,1050,1050,1025,1125,1,0,0,0,0,4
593420,-268,12,-68,352,1050,1050,1025,1125,1,0,0,0,0,4
593440,-275,12,-87,352,1050,1050,1025,1125,1,0,0,0,0,4
593460,-281,6,-112,352,1050,1050,1025,1125,1,0,0,0,0,4
593480,-287,0,-125,352,1050,1050,1025,1125,1,0,0,0,0,4
593500,-300,-12,-118,352,1050,1050,1025,1125,1,0,0,0,0,4
593520,-312,-18,-100,352,1050,1050,1025,1125,1,0,0,0,0,4
593540,-318,-31,-87,352,1050,1050,1025,1125,1,0,0,0,0,4
593560,-331,-37,-75,352,1050,1050,1025,1125,1,0,0,0,0,4
593580,-337,-43,-81,352,1050,1050,1125,1125,1,0,0,0,0,4
593600,-343,-56,-100,352,1050,1050,1125,1125,1,0,0,0,0,4
593640,-343,-68,-143,352,1050,1050,1125,1125,1,0,0,0,0,4
593660,-350,-75,-150,352,1050,1050,1125,1125,1,0,0,0,0,4
593680,-350,-87,-143,352,1050,1050,1125,1125,1,0,0,0,0,4
593700,-350,-93,-125,352,1050,1050,1125,1125,1,0,0,0,0,4
593720,-343,-100,-112,352,1050,1050,1125,1125,1,0,0,0,0,4
593740,-343,-106,-100,352,1050,1050,1125,1125,1,0,0,0,0,4
593760,-337,-112,-106,352,1050,1050,1125,1125,1,0,0,0,0,4
593780,-325,-118,-118,352,1050,1050,1125,1125,1,0,0,0,0,4
593800,-312,-118,-137,352,1050,1050,1125,1125,1,0,0,0,0,4
593820,-300,-118,-150,352,1050,1050,1125,1125,1,0,0,0,0,4
593840,-287,-118,-150,352,1050,1050,1125,1125,1,0,0,0,0,4
593860,-268,-112,-131,352,1050,1050,1125,1125,1,0,0,0,0,4
593880,-256,-112,-112,352,1050,1050,1125,1125,1,0,0,0,0,4
593900,-237,-106,-100,352,1050,1050,1125,1125,1,0,0,0,0,4
593920,-218,-100,-87,352,1050,1050,1125,1125,1,0,0,0,0,4
593940,-200,-93,-81,352,1050,1050,1125,1125,1,0,0,0,0,4
593960,-181,-87,-87,352,1050,1050,1125,1125,1,0,0,0,0,4
593980,-162,-81,-87,352,1050,1050,1125,1125,1,0,0,0,0,4
594000,-143,-68,-93,352,1050,1050,1125,1125,1,0,0,0,0,4
594020,-125,-62,-87,352,1050,1050,1125,1125,1,0,0,0,0,4
594040,-106,-56,-75,352,1050,1050,1125,1125,1,0,0,0,0,4
594060,-93,-50,-62,352,1050,1050,1125,1125,1,0,0,0,0,4
594080,-81,-37,-56,352,1050,1050,1025,1125,1,0,0,0,0,4
594100,-75,-31,-50,352,1050,1050,1025,1125,1,0,0,0,0,4
594120,-68,-18,-50,352,1050,1050,1025,1125,1,0,0,0,0,4
594140,-62,-12,-50,352,1050,1050,1025,1125,1,0,0,0,0,4
594160,-56,0,-56,352,1050,1050,1025,1125,1,0,0,0,0,4
594180,-56,6,-56,352,1050,1050,1025,1125,1,0,0,0,0,4
594200,-56,12,-56,352,1050,1050,1025,1125,1,0,0,0,0,4
594220,-56,18,-50,352,1050,1050,1025,1125,1,0,0,0,0,4
594240,-62,25,-50,352,1050,1050,1025,1125,1,0,0,0,0,4
594260,-68,31,-50,352,1050,1050,1025,1125,1,0,0,0,0,4
594280,-75,31,-43,352,1050,1050,1025,1125,1,0,0,0,0,4
594300,-81,31,-50,352,1050,1050,1025,1125,1,0,0,0,0,4
594320,-93,43,-50,352,1050,1050,1025,1125,1,0,0,0,0,4
594340,-100,37,-56,352,1050,1050,1025,1125,1,0,0,0,0,4
594360,-112,43,-62,352,1050,1050,1025,1125,1,0,0,0,0,4
594380,-125,37,-62,352,1050,1050,1025,1125,1,0,0,0,0,4
594400,-137,43,-68,352,700,700,1025,1125,0,1,0,1,0,2
594420,-150,37,-75,352,700,700,1025,1125,0,1,0,1,0,2
594440,-162,37,-75,352,700,700,1025,1125,0,1,0,1,0,2
594460,-168,37,-81,352,700,700,1025,1125,0,1,0,1,0,2
594480,-181,31,-81,352,700,700,1025,1125,0,1,0,1,0,2
594500,-193,31,-81,352,700,700,1025,1125,0,1,0,1,0,2
594520,-193,25,-81,352,700,700,1025,1125,0,1,0,1,0,2
594540,-200,25,-81,352,700,700,1025,1125,0,1,0,1,0,2
594560,-200,25,-81,352,700,700,1025,1125,0,1,0,1,0,2
594580,-200,18,-81,352,700,700,1075,1125,0,1,0,1,0,2
594600,-200,18,-81,352,700,700,1075,1125,0,1,0,1,0,2
594620,-200,12,-81,352,700,700,1075,1125,0,1,0,1,0,2
594640,-193,12,-87,352,700,700,1075,1125,0,1,0,1,0,2
594660,-187,12,-87,352,700,700,1075,1125,0,1,0,1,0,2
594680,-181,12,-81,352,700,700,1075,1125,0,1,0,1,0,2
594700,-168,12,-81,352,700,700,1075,1125,0,1,0,1,0,2
594720,-162,12,-75,352,700,700,1075,1125,0,1,0,1,0,2
594740,-150,12,-75,352,700,700,1075,1125,0,1,0,1,0,2
594760,-137,18,-75,352,700,700,1075,1125,0,1,0,1,0,2
594780,-131,18,-68,352,700,700,1075,1125,0,1,0,1,0,2
594800,-118,25,-68,352,700,700,1075,1125,0,1,0,1,0,2
594820,-112,25,-68,352,700,700,1075,1125,0,1,0,1,0,2
594840,-106,31,-68,352,700,700,1075,1125,0,1,0,1,0,2
594860,-100,37,-68,352,700,700,1075,1125,0,1,0,1,0,2
594880,-93,43,-62,352,700,700,1075,1125,0,1,0,1,0,2
594900,-87,43,-62,352,700,700,1075,1125,0,1,0,1,0,2
594920,-87,50,-56,352,700,700,1075,1125,0,1,0,1,0,2
594940,-81,56,-56,352,700,700,1075,1125,0,1,0,1,0,2
594960,-81,62,-56,352,700,700,1075,1125,0,1,0,1,0,2
594980,-81,68,-56,352,700,700,1075,1125,0,1,0,1,0,2
595000,-81,68,-56,352,700,700,1075,1125,0,1,0,1,0,2
595020,-81,75,-56,352,700,700,1075,1125,0,1,0,1,0,2
595040,-81,75,-56,352,700,700,1075,1125,0,1,0,1,0,2
595060,-81,81,-56,352,700,700,1075,1125,0,1,0,1,0,2
595080,-81,81,-56,352,700,700,1075,1125,0,1,0,1,0,2
595100,-87,87,-56,352,700,700,1125,1125,0,1,0,1,0,2
595120,-87,87,-56,352,700,700,1125,1125,0,1,0,1,0,2
595140,-93,87,-56,352,700,700,1125,1125,0,1,0,1,0,2
595160,-100,87,-56,352,700,700,1125,1125,0,1,0,1,0,2
595180,-100,87,-56,352,700,700,1125,1125,0,1,0,1,0,2
595200,-100,81,-56,352,700,700,1125,1125,0,1,0,1,0,2
595220,-106,81,-56,352,700,700,1125,1125,0,1,0,1,0,2
595240,-106,81,-56,352,700,700,1125,1125,0,1,0,1,0,2
595260,-106,81,-56,352,700,700,1125,1125,0,1,0,1,0,2
595280,-106,81,-56,352,700,700,1125,1125,0,1,0,1,0,2
595300,-106,75,-56,352,700,700,1125,1125,0,1,0,1,0,2
595320,-106,75,-56,352,700,700,1125,1125,0,1,0,1,0,2
595340,-106,75,-56,352,700,700,1125,1125,0,1,0,1,0,2
595360,-100,68,-56,352,700,700,1125,1125,0,1,0,1,0,2
595380,-100,68,-56,352,700,700,1125,1125,0,1,0,1,0,2
595400,-93,62,-56,352,700,700,1125,1125,0,1,0,1,0,2
595420,-93,62,-56,352,700,700,1125,1125,0,1,0,1,0,2
595440,-87,62,-56,352,700,700,1125,1125,0,1,0,1,0,2
595460,-87,56,-56,352,700,700,1125,1125,0,1,0,1,0,2
595480,-87,56,-56,352,700,700,1125,1125,0,1,0,1,0,2
595500,-81,56,-56,352,700,700,1125,1125,0,1,0,1,0,2
595520,-81,56,-56,352,700,700,1125,1125,0,1,0,1,0,2
595540,-81,56,-56,352,700,700,1125,1125,0,1,0,1,0,2
595560,-75,56,-56,352,700,700,1125,1125,0,1,0,1,0,2
595580,-75,50,-56,352,700,700,1125,1125,0,1,0,1,0,2
595600,-75,50,-56,352,700,700,1225,1125,0,1,0,1,0,2
595620,-75,50,-56,352,700,700,1225,1125,0,1,0,1,0,2
595640,-81,50,-56,352,700,700,1225,1125,0,1,0,1,0,2
595660,-87,50,-56,352,700,700,1225,1125,0,1,0,1,0,2
595680,-87,50,-56,352,700,700,1225,1125,0,1,0,1,0,2
595700,-87,56,-56,352,700,700,1225,1125,0,1,0,1,0,2
595720,-87,56,-56,352,700,700,1225,1125,0,1,0,1,0,2
595740,-93,56,-56,352,700,700,1225,1125,0,1,0,1,0,2
595760,-93,62,-56,352,700,700,1225,1125,0,1,0,1,0,2
595780,-93,62,-56,352,700,700,1225,1125,0,1,0,1,0,2
595800,-100,62,-56,352,700,700,1225,1125,0,1,0,1,0,2
595820,-100,62,-56,352,700,700,1225,1125,0,1,0,1,0,2
595840,-100,68,-56,352,700,700,1225,1125,0,1,0,1,0,2
595860,-100,68,-56,352,700,700,1225,1125,0,1,0,1,0,2
595880,-100,68,-56,352,700,700,1225,1125,0,1,0,1,0,2
595900,-100,68,-56,352,700,700,1225,1125,0,1,0,1,0,2
595920,-100,68,-56,352,700,700,1225,1125,0,1,0,1,0,2
595940,-100,68,-56,352,700,700,1225,1125,0,1,0,1,0,2
595960,-100,68,-56,352,700,700,1225,1125,0,1,0,1,0,2
595980,-100,68,-56,352,700,700,1225,1125,0,1,0,1,0,2
596000,-100,68,-56,352,700,700,1225,1125,0,1,0,1,0,2
596020,-93,68,-56,352,700,700,1225,1125,0,1,0,1,0,2
596040,-93,68,-56,352,700,700,1225,1125,0,1,0,1,0,2
596060,-93,68,-56,352,700,700,1225,1125,0,1,0,1,0,2
596080,-87,68,-56,352,700,700,1225,1125,0,1,0,1,0,2
596100,-87,68,-56,352,700,700,1225,1125,0,1,0,1,0,2
596120,-87,68,-56,352,700,700,1225,1125,0,1,0,1,0,2
596140,-87,62,-56,352,700,700,1225,1125,0,1,0,1,0,2
596160,-87,62,-56,352,700,700,1225,1125,0,1,0,1,0,2
596180,-87,62,-56,352,700,700,1225,1125,0,1,0,1,0,2
596200,-87,56,-56,352,700,700,1225,1125,0,1,0,1,0,2
596220,-87,56,-56,352,700,700,1225,1125,0,1,0,1,0,2
596240,-87,56,-56,352,700,700,1225,1125,0,1,0,1,0,2
596260,-87,50,-56,352,700,700,1225,1125,0,1,0,1,0,2
596280,-87,50,-56,352,700,700,1225,1125,0,1,0,1,0,2
596300,-87,50,-56,352,700,700,1225,1125,0,1,0,1,0,2
596320,-93,50,-56,352,700,700,1225,1125,0,1,0,1,0,2
596340,-93,50,-56,352,700,700,1225,1125,0,1,0,1,0,2
596360,-93,50,-56,352,700,700,1225,1125,0,1,0,1,0,2
596380,-93,43,-56,352,700,700,1225,1125,0,1,0,1,0,2
596400,-93,43,-56,352,700,700,1225,1125,0,1,0,1,0,2
596420,-93,43,-56,352,700,700,1225,1125,0,1,0,1,0,2
596440,-93,43,-56,352,700,700,1225,1125,0,1,0,1,0,2
596460,-93,43,-56,352,700,700,1225,1125,0,1,0,1,0,2
596480,-93,43,-56,352,700,700,1225,1125,0,1,0,1,0,2
596500,-93,50,-56,352,700,700,1225,1125,0,1,0,1,0,2
596520,-93,50,-56,352,700,700,1225,1125,0,1,0,1,0,2
596540,-93,50,-56,352,700,700,1225,1125,0,1,0,1,0,2
596560,-93,50,-56,352,700,700,1225,1125,0,1,0,1,0,2
596580,-93,56,-56,352,700,700,1225,1125,0,1,0,1,0,2
596600,-87,56,-56,352,700,700,1075,1125,0,1,0,1,0,2
596620,-87,56,-56,352,700,700,1075,1125,0,1,0,1,0,2
596640,-87,56,-56,352,700,700,1075,1125,0,1,0,1,0,2
596660,-87,62,-56,352,700,700,1075,1125,0,1,0,1,0,2
596680,-87,62,-56,352,700,700,1075,1125,0,1,0,1,0,2
596700,-87,62,-56,352,700,700,1075,1125,0,1,0,1,0,2
596720,-87,62,-56,352,700,700,1075,1125,0,1,0,1,0,2
596740,-87,62,-56,352,700,700,1075,1125,0,1,0,1,0,2
596760,-87,68,-56,352,700,700,1075,1125,0,1,0,1,0,2
596780,-87,68,-56,352,700,700,1075,1125,0,1,0,1,0,2
596800,-87,68,-56,352,700,700,1075,1125,0,1,0,1,0,2
596820,-87,68,-56,352,700,700,1075,1125,0,1,0,1,0,2
596840,-87,62,-56,352,700,700,1075,1125,0,1,0,1,0,2
596860,-87,62,-56,352,700,700,1075,1125,0,1,0,1,0,2
596880,-87,62,-56,352,700,700,1075,1125,0,1,0,1,0,2
596900,-87,62,-56,352,700,700,1075,1125,0,1,0,1,0,2
596920,-87,62,-56,352,700,700,1075,1125,0,1,0,1,0,2
596940,-87,62,-56,352,700,700,1075,1125,0,1,0,1,0,2
596960,-87,62,-56,352,700,700,1075,1125,0,1,0,1,0,2
596980,-87,56,-56,352,700,700,1075,1125,0,1,0,1,0,2
597000,-87,56,-56,352,700,700,1075,1125,0,1,0,1,0,2
597020,-87,56,-56,352,700,700,1075,1125,0,1,0,1,0,2
597040,-87,56,-56,352,700,700,1075,1125,0,1,0,1,0,2
597060,-87,56,-56,352,700,700,1075,1125,0,1,0,1,0,2
597080,-87,56,-56,352,700,700,1075,1125,0,1,0,1,0,2
597100,-87,56,-56,352,700,700,1125,1125,0,1,0,1,0,2
597120,-87,56,-56,352,700,700,1125,1125,0,1,0,1,0,2
597140,-87,56,-56,352,700,700,1125,1125,0,1,0,1,0,2
597160,-87,56,-62,352,700,700,1125,1125,0,1,0,1,0,2
597180,-81,56,-56,352,700,700,1125,1125,0,1,0,1,0,2
597200,-81,50,-56,352,700,700,1125,1125,0,1,0,1,0,2
597220,-81,50,-56,352,700,700,1125,1125,0,1,0,1,0,2
597240,-81,50,-56,352,700,700,1125,1125,0,1,0,1,0,2
597260,-81,50,-56,352,700,700,1125,1125,0,1,0,1,0,2
597280,-81,50,-56,352,700,700,1125,1125,0,1,0,1,0,2
597300,-81,50,-56,352,700,700,1125,1125,0,1,0,1,0,2
597320,-81,56,-56,352,700,700,1125,1125,0,1,0,1,0,2
597340,-87,56,-56,352,700,700,1125,1125,0,1,0,1,0,2
597360,-87,56,-56,352,700,700,1125,1125,0,1,0,1,0,2
597380,-87,56,-56,352,700,700,1125,1125,0,1,0,1,0,2
597400,-87,56,-56,352,700,700,1125,1125,0,1,0,1,0,2
597420,-87,56,-56,352,700,700,1125,1125,0,1,0,1,0,2
597440,-87,56,-56,352,700,700,1125,1125,0,1,0,1,0,2
597460,-87,56,-56,352,700,700,1125,1125,0,1,0,1,0,2
597480,-87,56,-56,352,700,700,1125,1125,0,1,0,1,0,2
597500,-87,56,-56,352,700,700,1125,1125,0,1,0,1,0,2
597520,-87,56,-56,352,700,700,1125,1125,0,1,0,1,0,2
597540,-87,56,-56,352,700,700,1125,1125,0,1,0,1,0,2
597560,-87,56,-56,352,700,700,1125,1125,0,1,0,1,0,2
597580,-87,56,-56,352,700,700,1125,1125,0,1,0,1,0,2
597600,-87,56,-56,352,700,700,1125,1125,0,1,0,1,0,2
597620,-87,56,-56,352,700,700,1175,1125,0,1,0,1,0,2
597640,-87,56,-56,352,700,700,1175,1125,0,1,0,1,0,2
597660,-87,56,-56,352,700,700,1175,1125,0,1,0,1,0,2
597680,-87,56,-62,352,700,700,1175,1125,0,1,0,1,0,2
597700,-87,56,-56,352,700,700,1175,1125,0,1,0,1,0,2
597720,-87,56,-56,352,700,700,1175,1125,0,1,0,1,0,2
597740,-87,56,-56,352,700,700,1175,1125,0,1,0,1,0,2
597760,-87,50,-56,352,700,700,1175,1125,0,1,0,1,0,2
597780,-87,50,-56,352,700,700,1175,1125,0,1,0,1,0,2
597800,-87,50,-56,352,700,700,1175,1125,0,1,0,1,0,2
597820,-87,50,-56,352,700,700,1175,1125,0,1,0,1,0,2
597840,-87,50,-56,352,700,700,1175,1125,0,1,0,1,0,2
597860,-87,50,-56,352,700,700,1175,1125,0,1,0,1,0,2
597880,-87,50,-56,352,700,700,1175,1125,0,1,0,1,0,2
597900,-87,50,-56,352,700,700,1175,1125,0,1,0,1,0,2
597920,-87,50,-56,352,700,700,1175,1125,0,1,0,1,0,2
597940,-87,50,-56,352,700,700,1175,1125,0,1,0,1,0,2
597960,-87,43,-56,352,700,700,1175,1125,0,1,0,1,0,2
597980,-87,43,-56,352,700,700,1175,1125,0,1,0,1,0,2
598000,-87,43,-56,352,700,700,1175,1125,0,1,0,1,0,2
598020,-87,43,-56,352,700,700,1175,1125,0,1,0,1,0,2
598040,-87,43,-56,352,700,700,1175,1125,0,1,0,1,0,2
598060,-87,43,-56,352,700,700,1175,1125,0,1,0,1,0,2
598080,-87,43,-56,352,700,700,1175,1125,0,1,0,1,0,2
598100,-87,43,-56,352,700,700,1175,1125,0,1,0,1,0,2
598120,-87,43,-56,352,700,700,1225,1125,0,1,0,1,0,2
598140,-87,43,-56,352,700,700,1225,1125,0,1,0,1,0,2
598160,-87,43,-56,352,700,700,1225,1125,0,1,0,1,0,2
598180,-87,43,-56,352,700,700,1225,1125,0,1,0,1,0,2
598200,-87,50,-56,352,700,700,1225,1125,0,1,0,1,0,2
598220,-87,50,-56,352,700,700,1225,1125,0,1,0,1,0,2
598240,-87,50,-56,352,700,700,1225,1125,0,1,0,1,0,2
598260,-87,50,-56,352,700,700,1225,1125,0,1,0,1,0,2
598280,-87,50,-56,352,700,700,1225,1125,0,1,0,1,0,2
598300,-87,50,-56,352,700,700,1225,1125,0,1,0,1,0,2
598320,-87,50,-56,352,700,700,1225,1125,0,1,0,1,0,2
598340,-87,50,-56,352,700,700,1225,1125,0,1,0,1,0,2
598360,-87,50,-56,352,700,700,1225,1125,0,1,0,1,0,2
598380,-87,50,-56,352,700,700,1225,1125,0,1,0,1,0,2
598400,-87,50,-56,352,700,700,1225,1125,0,1,0,1,0,2
598420,-87,50,-56,352,700,700,1225,1125,0,1,0,1,0,2
598440,-87,50,-56,352,700,700,1225,1125,0,1,0,1,0,2
598460,-87,50,-56,352,700,700,1225,1125,0,1,0,1,0,2
598480,-87,43,-56,352,700,700,1225,1125,0,1,0,1,0,2
598500,-87,43,-56,352,700,700,1225,1125,0,1,0,1,0,2
598520,-87,43,-56,352,700,700,1225,1125,0,1,0,1,0,2
598540,-87,43,-56,352,700,700,1225,1125,0,1,0,1,0,2
598560,-87,43,-56,352,700,700,1225,1125,0,1,0,1,0,2
598580,-87,43,-56,352,700,700,1225,1125,0,1,0,1,0,2
598600,-87,43,-56,352,700,700,1225,1125,0,1,0,1,0,2
598620,-87,43,-56,352,700,700,1175,1125,0,1,0,1,0,2
598640,-87,43,-56,352,700,700,1175,1125,0,1,0,1,0,2
598660,-87,43,-56,352,700,700,1175,1125,0,1,0,1,0,2
598680,-87,43,-56,352,700,700,1175,1125,0,1,0,1,0,2
598700,-87,43,-56,352,700,700,1175,1125,0,1,0,1,0,2
598720,-87,43,-56,352,700,700,1175,1125,0,1,0,1,0,2
598740,-93,43,-56,352,700,700,1175,1125,0,1,0,1,0,2
598760,-93,43,-56,352,700,700,1175,1125,0,1,0,1,0,2
598780,-93,43,-56,352,700,700,1175,1125,0,1,0,1,0,2
598800,-93,43,-56,352,700,700,1175,1125,0,1,0,1,0,2
598820,-93,43,-56,352,700,700,1175,1125,0,1,0,1,0,2
598840,-93,43,-56,352,700,700,1175,1125,0,1,0,1,0,2
598860,-93,43,-56,352,700,700,1175,1125,0,1,0,1,0,2
598880,-93,43,-56,352,700,700,1175,1125,0,1,0,1,0,2
598900,-93,43,-56,352,700,700,1175,1125,0,1,0,1,0,2
598920,-93,43,-56,352,700,700,1175,1125,0,1,0,1,0,2
598940,-93,43,-56,352,700,700,1175,1125,0,1,0,1,0,2
598960,-93,43,-56,352,700,700,1175,1125,0,1,0,1,0,2
598980,-93,43,-56,352,700,700,1175,1125,0,1,0,1,0,2
599000,-93,43,-56,352,700,700,1175,1125,0,1,0,1,0,2
599020,-93,43,-56,352,700,700,1175,1125,0,1,0,1,0,2
599040,-93,43,-56,352,700,700,1175,1125,0,1,0,1,0,2
599060,-93,43,-56,352,700,700,1175,1125,0,1,0,1,0,2
599080,-93,43,-56,352,700,700,1175,1125,0,1,0,1,0,2
599100,-93,43,-56,352,700,700,1175,1125,0,1,0,1,0,2
599120,-93,43,-56,352,700,700,1075,1125,0,1,0,1,0,2
599140,-93,43,-56,352,700,700,1075,1125,0,1,0,1,0,2
599160,-93,43,-56,352,700,700,1075,1125,0,1,0,1,0,2
599180,-93,43,-56,352,700,700,1075,1125,0,1,0,1,0,2
599200,-93,43,-62,352,700,700,1075,1125,0,1,0,1,0,2
599220,-93,43,-62,352,700,700,1075,1125,0,1,0,1,0,2
599240,-93,43,-62,352,700,700,1075,1125,0,1,0,1,0,2
599260,-93,43,-62,352,700,700,1075,1125,0,1,0,1,0,2
599280,-93,43,-62,352,700,700,1075,1125,0,1,0,1,0,2
599300,-93,43,-62,352,700,700,1075,1125,0,1,0,1,0,2
599320,-93,43,-62,352,700,700,1075,1125,0,1,0,1,0,2
599340,-93,43,-62,352,700,700,1075,1125,0,1,0,1,0,2
599360,-93,43,-62,352,700,700,1075,1125,0,1,0,1,0,2
599380,-93,43,-62,352,700,700,1075,1125,0,1,0,1,0,2
599400,-93,37,-62,352,700,700,1075,1125,0,1,0,1,0,2
599420,-93,37,-62,352,700,700,1075,1125,0,1,0,1,0,2
599440,-93,37,-62,352,700,700,1075,1125,0,1,0,1,0,2
599460,-93,37,-62,352,700,700,1075,1125,0,1,0,1,0,2
599480,-93,37,-62,352,700,700,1075,1125,0,1,0,1,0,2
599500,-93,37,-62,352,700,700,1075,1125,0,1,0,1,0,2
599520,-93,37,-62,352,700,700,1075,1125,0,1,0,1,0,2
599540,-93,37,-62,352,700,700,1075,1125,0,1,0,1,0,2
599560,-93,37,-62,352,700,700,1075,1125,0,1,0,1,0,2
599580,-93,37,-62,352,700,700,1075,1125,0,1,0,1,0,2
599600,-93,37,-62,352,700,700,1075,1125,0,1,0,1,0,2
599620,-93,37,-62,352,700,700,1225,1125,0,1,0,1,0,2
599640,-93,37,-62,352,700,700,1225,1125,0,1,0,1,0,2
599660,-93,43,-62,352,700,700,1225,1125,0,1,0,1,0,2
599680,-93,43,-62,352,700,700,1225,1125,0,1,0,1,0,2
599700,-93,43,-62,352,700,700,1225,1125,0,1,0,1,0,2
599720,-87,43,-56,352,700,700,1225,1125,0,1,0,1,0,2
599740,-87,43,-56,352,700,700,1225,1125,0,1,0,1,0,2
599760,-87,43,-56,352,700,700,1225,1125,0,1,0,1,0,2
599780,-87,43,-56,352,700,700,1225,1125,0,1,0,1,0,2
599800,-87,43,-56,352,700,700,1225,1125,0,1,0,1,0,2
599820,-87,50,-56,352,700,700,1225,1125,0,1,0,1,0,2
599840,-87,50,-56,352,700,700,1225,1125,0,1,0,1,0,2
599860,-87,50,-56,352,700,700,1225,1125,0,1,0,1,0,2
599880,-87,50,-56,352,700,700,1225,1125,0,1,0,1,0,2
599900,-87,50,-56,352,700,700,1225,1125,0,1,0,1,0,2
599920,-87,50,-56,352,700,700,1225,1125,0,1,0,1,0,2
599940,-87,50,-56,352,700,700,1225,1125,0,1,0,1,0,2
599960,-87,50,-56,352,700,700,1225,1125,0,1,0,1,0,2
599980,-87,50,-56,352,700,700,1225,1125,0,1,0,1,0,2
600000,-87,50,-56,352,700,700,1225,1125,0,1,0,1,0,2
600020,-87,50,-56,352,700,700,1225,1125,0,1,0,1,0,2
600040,-87,50,-56,352,700,700,1225,1125,0,1,0,1,0,2
600060,-87,50,-56,352,700,700,1225,1125,0,1,0,1,0,2
600080,-87,50,-56,352,700,700,1225,1125,0,1,0,1,0,2
600100,-87,50,-56,352,700,700,1225,1125,0,1,0,1,0,2
600120,-87,50,-56,352,700,700,1225,1125,0,1,0,1,0,2
600140,-87,50,-56,352,700,700,1075,1125,0,1,0,1,0,5
600160,-87,50,-56,352,700,700,1075,1125,0,1,0,1,0,5
600180,-87,50,-56,352,700,700,1075,1125,0,1,0,1,0,5
600200,-87,43,-56,352,700,700,1075,1125,0,1,0,1,0,5
600220,-87,43,-56,352,700,700,1075,1125,0,1,0,1,0,5
600240,-93,43,-56,352,700,700,1075,1125,0,1,0,1,0,4
600260,-87,43,-56,352,700,700,1125,1125,0,1,0,1,0,4
600280,-87,43,-56,352,700,700,1125,1125,0,1,0,1,0,4
600300,-87,43,-56,352,700,700,1125,1125,0,1,0,1,0,4
